%time,field.x,field.y,field.z
1566249488798626080,-0.0,0.0,0.0
1566249488821050583,-0.0,0.0,0.0
1566249488837068379,-0.0,0.0,0.0
1566249488857079604,-0.0,0.0,0.0
1566249488877199744,-0.0,0.0,0.0
1566249488897590804,-0.0,0.0,0.0
1566249488916572989,-0.0,0.0,0.0
1566249488936630910,-0.0,0.0,0.0
1566249488956708245,-0.0,0.0,0.0
1566249488976897938,-0.0,0.0,0.0
1566249488997082010,-0.0,0.0,0.0
1566249489017153323,-0.0,0.0,0.0
1566249489036245066,-0.0,0.0,0.0
1566249489056279057,-0.0,0.0,0.0
1566249489076467794,-0.0,0.0,0.0
1566249489096485576,-0.0,0.0,0.0
1566249489116708591,-0.0,0.0,0.0
1566249489136880868,-0.0,0.0,0.0
1566249489156975510,-0.0,0.0,0.0
1566249489176009424,-0.0,0.0,0.0
1566249489196039875,-0.0,0.0,0.0
1566249489216398762,-0.0,0.0,0.0
1566249489237003910,-0.0,0.0,0.0
1566249489256070876,-0.0,0.0,0.0
1566249489276278523,-0.0,0.0,0.0
1566249489296603863,-0.0,0.0,0.0
1566249489315584240,-0.0,0.0,0.0
1566249489335664437,-0.0,0.0,0.0
1566249489356119106,-0.0,0.0,0.0
1566249489375611335,-0.0,0.0,0.0
1566249489395620009,-0.0,0.0,0.0
1566249489415696333,-0.0,0.0,0.0
1566249489435974958,-0.0,0.0,0.0
1566249489455954423,-0.0,0.0,0.0
1566249489476030375,-0.0,0.0,0.0
1566249489496146510,-0.0,0.0,0.0
1566249489515389405,-0.0,0.0,0.0
1566249489535488286,-0.0,0.0,0.0
1566249489555585831,-0.0,0.0,0.0
1566249489575725705,-0.0,0.0,0.0
1566249489597183802,-0.0,0.0,0.0
1566249489615615300,-0.0,0.0,0.0
1566249489635861763,-0.0,0.0,0.0
1566249489655081132,-0.0,0.0,0.0
1566249489675378639,-0.0,0.0,0.0
1566249489695436699,-0.0,0.0,0.0
1566249489716685445,-0.0,0.0,0.0
1566249489735298141,-0.0,0.0,0.0
1566249489757657377,-0.0,0.0,0.0
1566249489775281281,-0.0,0.0,0.0
1566249489795326489,-0.0,0.0,0.0
1566249489815460808,-0.0,0.0,0.0
1566249489835762887,-0.0,0.0,0.0
1566249489855789279,-0.0,0.0,0.0
1566249489874982171,-0.0,0.0,0.0
1566249489895167974,-0.0,0.0,0.0
1566249489916124141,-0.0,0.0,0.0
1566249489934644197,-0.0,0.0,0.0
1566249489955373200,-0.0,0.0,0.0
1566249489979199084,-0.0,0.0,0.0
1566249489995212866,-0.0,0.0,0.0
1566249490015276871,-0.0,0.0,0.0
1566249490034499852,-0.0,0.0,0.0
1566249490055688188,-0.0,0.0,0.0
1566249490074811909,-0.0,0.0,0.0
1566249490094903538,-0.0,0.0,0.0
1566249490115060174,-0.0,0.0,0.0
1566249490134166715,-0.0,0.0,0.0
1566249490154291898,-0.0,0.0,0.0
1566249490174347828,-0.0,0.0,0.0
1566249490194516911,-0.0,0.0,0.0
1566249490214632122,-0.0,0.0,0.0
1566249490234633347,-0.0,0.0,0.0
1566249490254763216,-0.0,0.0,0.0
1566249490274102422,-0.0,0.0,0.0
1566249490294069175,-0.0,0.0,0.0
1566249490314084587,-0.0,0.0,0.0
1566249490334469029,-0.0,0.0,0.0
1566249490353773006,-0.0,0.0,0.0
1566249490373839618,-0.0,0.0,0.0
1566249490393861077,-0.0,0.0,0.0
1566249490413991542,-0.0,0.0,0.0
1566249490435048937,-0.0,0.0,0.0
1566249490453652920,-0.0,0.0,0.0
1566249490473762072,-0.0,0.0,0.0
1566249490493939113,-0.0,0.0,0.0
1566249490514043849,-0.0,0.0,0.0
1566249490534056196,-0.0,0.0,0.0
1566249490554065970,-0.0,0.0,0.0
1566249490573255308,-0.0,0.0,0.0
1566249490593360421,-0.0,0.0,0.0
1566249490613436503,-0.0,0.0,0.0
1566249490633766394,-0.0,0.0,0.0
1566249490654039019,-0.0,0.0,0.0
1566249490673066556,-0.0,0.0,0.0
1566249490693903886,-0.0,0.0,0.0
1566249490713661066,-0.0,0.0,0.0
1566249490733900475,-0.0,0.0,0.0
1566249490752861350,-0.0,0.0,0.0
1566249490772908023,-0.0,0.0,0.0
1566249490793065644,-0.0,0.0,0.0
1566249490813258774,-0.0,0.0,0.0
1566249490832819213,-0.0,0.0,0.0
1566249490852962974,-0.0,0.0,0.0
1566249490873177140,-0.0,0.0,0.0
1566249490894010373,-0.0,0.0,0.0
1566249490913280396,-0.0,0.0,0.0
1566249490933274417,-0.0,0.0,0.0
1566249490952691946,-0.0,0.0,0.0
1566249490972610559,-0.0,0.0,0.0
1566249490992760436,-0.0,0.0,0.0
1566249491012860297,-0.0,0.0,0.0
1566249491033000037,-0.0,0.0,0.0
1566249491053126210,-0.0,0.0,0.0
1566249491072255311,-0.0,0.0,0.0
1566249491092406564,-0.0,0.0,0.0
1566249491112634840,-0.0,0.0,0.0
1566249491132699389,-0.0,0.0,0.0
1566249491153411711,-0.0,0.0,0.0
1566249491172521723,-0.0,0.0,0.0
1566249491192956892,-0.0,0.0,0.0
1566249491212880508,-0.0,0.0,0.0
1566249491232033451,-0.0,0.0,0.0
1566249491252073111,-0.0,0.0,0.0
1566249491272372951,-0.0,0.0,0.0
1566249491292542145,-0.0,0.0,0.0
1566249491312476072,-0.0,0.0,0.0
1566249491331492401,-0.0,0.0,0.0
1566249491351910820,-0.0,0.0,0.0
1566249491371757552,-0.0,0.0,0.0
1566249491392181966,-0.0,0.0,0.0
1566249491412290013,-0.0,0.0,0.0
1566249491432444564,-0.0,0.0,0.0
1566249491451355262,-0.0,0.0,0.0
1566249491471444671,-0.0,0.0,0.0
1566249491491773394,-0.0,0.0,0.0
1566249491511996296,-0.0,0.0,0.0
1566249491532108663,-0.0,0.0,0.0
1566249491551245350,-0.0,0.0,0.0
1566249491571431323,-0.0,0.0,0.0
1566249491591363333,-0.0,0.0,0.0
1566249491611481520,-0.0,0.0,0.0
1566249491631557161,-0.0,0.0,0.0
1566249491651701212,-0.0,0.0,0.0
1566249491671058785,-0.0,0.0,0.0
1566249491690951247,-0.0,0.0,0.0
1566249491711486645,-0.0,0.0,0.0
1566249491731550208,-0.0,0.0,0.0
1566249491751572988,-0.0,0.0,0.0
1566249491770678103,-0.0,0.0,0.0
1566249491790929334,-0.0,0.0,0.0
1566249491811001700,-0.0,0.0,0.0
1566249491831476890,-0.0,0.0,0.0
1566249491850694358,-0.0,0.0,0.0
1566249491871396235,-0.0,0.0,0.0
1566249491890795405,-0.0,0.0,0.0
1566249491910796430,-0.0,0.0,0.0
1566249491930938583,-0.0,0.0,0.0
1566249491950314913,-0.0,0.0,0.0
1566249491970589485,-0.0,0.0,0.0
1566249491990577463,-0.0,0.0,0.0
1566249492010719414,-0.0,0.0,0.0
1566249492031215604,-0.0,0.0,0.0
1566249492051156240,-0.0,0.0,0.0
1566249492071124456,-0.0,0.0,0.0
1566249492090396822,-0.0,0.0,0.0
1566249492110341870,-0.0,0.0,0.0
1566249492130451620,-0.0,0.0,0.0
1566249492150502876,-0.0,0.0,0.0
1566249492170777384,-0.0,0.0,0.0
1566249492191001516,-0.0,0.0,0.0
1566249492209944040,-0.0,0.0,0.0
1566249492229991183,-0.0,0.0,0.0
1566249492251614572,-0.0,0.0,0.0
1566249492271016332,-0.0,0.0,0.0
1566249492289819401,-0.0,0.0,0.0
1566249492309999124,-0.0,0.0,0.0
1566249492330060696,-0.0,0.0,0.0
1566249492350003477,-0.0,0.0,0.0
1566249492370250025,-0.0,0.0,0.0
1566249492390372474,-0.0,0.0,0.0
1566249492409631745,-0.0,0.0,0.0
1566249492429756372,-0.0,0.0,0.0
1566249492449811447,-0.0,0.0,0.0
1566249492469965017,-0.0,0.0,0.0
1566249492490246860,-0.0,0.0,0.0
1566249492509340558,-0.0,0.0,0.0
1566249492529479843,-0.0,0.0,0.0
1566249492549488731,-0.0,0.0,0.0
1566249492569767697,-0.0,0.0,0.0
1566249492589521300,-0.0,0.0,0.0
1566249492609667755,-0.0,0.0,0.0
1566249492629706920,-0.0,0.0,0.0
1566249492649832093,-0.0,0.0,0.0
1566249492668914156,-0.0,0.0,0.0
1566249492689338475,-0.0,0.0,0.0
1566249492709519132,-0.0,0.0,0.0
1566249492729652867,-0.0,0.0,0.0
1566249492749610303,-0.0,0.0,0.0
1566249492768894480,-0.0,0.0,0.0
1566249492789164164,-0.0,0.0,0.0
1566249492809683154,-0.0,0.0,0.0
1566249492829600585,-0.0,0.0,0.0
1566249492848740855,-0.0,0.0,0.0
1566249492868910639,-0.0,0.0,0.0
1566249492889148630,-0.0,0.0,0.0
1566249492909313327,-0.0,0.0,0.0
1566249492929279671,-0.0,0.0,0.0
1566249492948410610,-0.0,0.0,0.0
1566249492968633180,-0.0,0.0,0.0
1566249492988967422,-0.0,0.0,0.0
1566249493009096920,-0.0,0.0,0.0
1566249493028254867,-0.0,0.0,0.0
1566249493048274952,-0.0,0.0,0.0
1566249493068449859,-0.0,0.0,0.0
1566249493088532111,-0.0,0.0,0.0
1566249493108817760,-0.0,0.0,0.0
1566249493127998215,-0.0,0.0,0.0
1566249493148004250,-0.0,0.0,0.0
1566249493168105792,-0.0,0.0,0.0
1566249493188455950,-0.0,0.0,0.0
1566249493208400006,-0.0,0.0,0.0
1566249493228420277,-0.0,0.0,0.0
1566249493248402268,-0.0,0.0,0.0
1566249493271685221,-0.0,0.0,0.0
1566249493287660771,-0.0,0.0,0.0
1566249493307754836,-0.0,0.0,0.0
1566249493328139855,-0.0,0.0,0.0
1566249493348296210,-0.0,0.0,0.0
1566249493368447618,-0.0,0.0,0.0
1566249493387655810,-0.0,0.0,0.0
1566249493408024677,-0.0,0.0,0.0
1566249493428376499,-0.0,0.0,0.0
1566249493447383980,-0.0,0.0,0.0
1566249493467505642,-0.0,0.0,0.0
1566249493488224440,-0.0,0.0,0.0
1566249493507328113,-0.0,0.0,0.0
1566249493527476653,-0.0,0.0,0.0
1566249493547557357,-0.0,0.0,0.0
1566249493567547621,-0.0,0.0,0.0
1566249493587816044,-0.0,0.0,0.0
1566249493608087997,-0.0,0.0,0.0
1566249493627248932,-0.0,0.0,0.0
1566249493647546697,-0.0,0.0,0.0
1566249493667396670,-0.0,0.0,0.0
1566249493686913186,-0.0,0.0,0.0
1566249493706900080,-0.0,0.0,0.0
1566249493727104414,-0.0,0.0,0.0
1566249493747234775,-0.0,0.0,0.0
1566249493767199161,-0.0,0.0,0.0
1566249493787345119,-0.0,0.0,0.0
1566249493807607589,-0.0,0.0,0.0
1566249493827611642,-0.0,0.0,0.0
1566249493846598696,-0.0,0.0,0.0
1566249493866761323,-0.0,0.0,0.0
1566249493887000642,-0.0,0.0,0.0
1566249493907068038,-0.0,0.0,0.0
1566249493927204561,-0.0,0.0,0.0
1566249493947520178,-0.0,0.0,0.0
1566249493966502668,-0.0,0.0,0.0
1566249493986600645,-0.0,0.0,0.0
1566249494006726104,-0.0,0.0,0.0
1566249494026947300,-0.0,0.0,0.0
1566249494047089519,-0.0,0.0,0.0
1566249494067127454,-0.0,0.0,0.0
1566249494086316770,-0.0,0.0,0.0
1566249494106938384,-0.0,0.0,0.0
1566249494126604879,-0.0,0.0,0.0
1566249494146704411,-0.0,0.0,0.0
1566249494166945147,-0.0,0.0,0.0
1566249494185997852,-0.0,0.0,0.0
1566249494206077382,-0.0,0.0,0.0
1566249494226099906,-0.0,0.0,0.0
1566249494246391124,-0.0,0.0,0.0
1566249494266445591,-0.0,0.0,0.0
1566249494286544144,-0.0,0.0,0.0
1566249494305774761,-0.0,0.0,0.0
1566249494326572078,-0.0,0.0,0.0
1566249494346110645,-0.0,0.0,0.0
1566249494366189131,-0.0,0.0,0.0
1566249494386369700,-0.0,0.0,0.0
1566249494406473659,-0.0,0.0,0.0
1566249494425572315,-0.0,0.0,0.0
1566249494445656515,-0.0,0.0,0.0
1566249494465970451,-0.0,0.0,0.0
1566249494486020824,-0.0,0.0,0.0
1566249494506077749,-0.0,0.0,0.0
1566249494525298639,-0.0,0.0,0.0
1566249494545662757,-0.0,0.0,0.0
1566249494565682024,-0.0,0.0,0.0
1566249494585712624,-0.0,0.0,0.0
1566249494605834905,-0.0,0.0,0.0
1566249494625875888,-0.0,0.0,0.0
1566249494644989952,-0.0,0.0,0.0
1566249494665066528,-0.0,0.0,0.0
1566249494685134598,-0.0,0.0,0.0
1566249494705514889,-0.0,0.0,0.0
1566249494725481398,-0.0,0.0,0.0
1566249494745544999,-0.0,0.0,0.0
1566249494764681722,-0.0,0.0,0.0
1566249494785287888,-0.0,0.0,0.0
1566249494805534327,-0.0,0.0,0.0
1566249494824846287,-0.0,0.0,0.0
1566249494844433946,-0.0,0.0,0.0
1566249494864683347,-0.0,0.0,0.0
1566249494884952746,-0.0,0.0,0.0
1566249494905023977,-0.0,0.0,0.0
1566249494925145678,-0.0,0.0,0.0
1566249494948308230,-0.0,0.0,0.0
1566249494964214067,-0.0,0.0,0.0
1566249494984396678,-0.0,0.0,0.0
1566249495004578957,-0.0,0.0,0.0
1566249495024715555,-0.0,0.0,0.0
1566249495044608041,-0.0,0.0,0.0
1566249495064652244,-0.0,0.0,0.0
1566249495084735224,-0.0,0.0,0.0
1566249495104978591,-0.0,0.0,0.0
1566249495124120041,-0.0,0.0,0.0
1566249495144253276,-0.0,0.0,0.0
1566249495164330798,-0.0,0.0,0.0
1566249495184591119,-0.0,0.0,0.0
1566249495204866065,-0.0,0.0,0.0
1566249495223946738,-0.0,0.0,0.0
1566249495246034267,-0.0,0.0,0.0
1566249495264335419,-0.0,0.0,0.0
1566249495284399783,-0.0,0.0,0.0
1566249495304579504,-0.0,0.0,0.0
1566249495323691161,-0.0,0.0,0.0
1566249495343704534,-0.0,0.0,0.0
1566249495363729811,-0.0,0.0,0.0
1566249495384498381,-0.0,0.0,0.0
1566249495404394606,-0.0,0.0,0.0
1566249495423585133,-0.0,0.0,0.0
1566249495443638317,-0.0,0.0,0.0
1566249495467357199,-0.0,0.0,0.0
1566249495484825212,-0.0,0.0,0.0
1566249495503447305,-0.0,0.0,0.0
1566249495523435382,-0.0,0.0,0.0
1566249495543961953,-0.0,0.0,0.0
1566249495563902672,-0.0,0.0,0.0
1566249495583788923,-0.0,0.0,0.0
1566249495603261653,-0.0,0.0,0.0
1566249495623674170,-0.0,0.0,0.0
1566249495643530062,-0.0,0.0,0.0
1566249495663529915,-0.0,0.0,0.0
1566249495684069264,-0.0,0.0,0.0
1566249495702953328,-0.0,0.0,0.0
1566249495723087353,-0.0,0.0,0.0
1566249495743024040,-0.0,0.0,0.0
1566249495763138532,-0.0,0.0,0.0
1566249495783381544,-0.0,0.0,0.0
1566249495803316915,-0.0,0.0,0.0
1566249495823750360,-0.0,0.0,0.0
1566249495843058009,-0.0,0.0,0.0
1566249495863083632,-0.0,0.0,0.0
1566249495883039819,-0.0,0.0,0.0
1566249495903100514,-0.0,0.0,0.0
1566249495923188316,-0.0,0.0,0.0
1566249495943401388,-0.0,0.0,0.0
1566249495962823300,-0.0,0.0,0.0
1566249495982923731,-0.0,0.0,0.0
1566249496003361107,-0.0,0.0,0.0
1566249496022465245,-0.0,0.0,0.0
1566249496042601637,-0.0,0.0,0.0
1566249496062715119,-0.0,0.0,0.0
1566249496082951326,-0.0,0.0,0.0
1566249496102029794,-0.0,0.0,0.0
1566249496122153337,-0.0,0.0,0.0
1566249496142302332,-0.0,0.0,0.0
1566249496162468407,-0.0,0.0,0.0
1566249496182565321,-0.0,0.0,0.0
1566249496202810306,-0.0,0.0,0.0
1566249496222879132,-0.0,0.0,0.0
1566249496241913931,-0.0,0.0,0.0
1566249496261969396,-0.0,0.0,0.0
1566249496281999580,-0.0,0.0,0.0
1566249496302112211,-0.0,0.0,0.0
1566249496322147741,-0.0,0.0,0.0
1566249496342234888,-0.0,0.0,0.0
1566249496362255483,-0.0,0.0,0.0
1566249496382375633,-0.0,0.0,0.0
1566249496403537644,-0.0,0.0,0.0
1566249496421644816,-0.0,0.0,0.0
1566249496441662055,-0.0,0.0,0.0
1566249496461767776,-0.0,0.0,0.0
1566249496481872868,-0.0,0.0,0.0
1566249496501989153,-0.0,0.0,0.0
1566249496522108861,-0.0,0.0,0.0
1566249496541553107,-0.0,0.0,0.0
1566249496561634686,-0.0,0.0,0.0
1566249496581682269,-0.0,0.0,0.0
1566249496601809711,-0.0,0.0,0.0
1566249496621793260,-0.0,0.0,0.0
1566249496641032861,-0.0,0.0,0.0
1566249496661258876,-0.0,0.0,0.0
1566249496681377745,-0.0,0.0,0.0
1566249496701488110,-0.0,0.0,0.0
1566249496721637690,-0.0,0.0,0.0
1566249496741616757,-0.0,0.0,0.0
1566249496760810618,-0.0,0.0,0.0
1566249496780833652,-0.309616,3.889136,3.109856
1566249496801001454,-0.309616,3.889136,3.109856
1566249496822065018,-0.313456,3.86576,3.178496
1566249496841509969,-0.313456,3.86576,3.178496
1566249496860575518,-0.317344,3.84136,3.248224
1566249496880603695,-0.317344,3.84136,3.248224
1566249496900822488,-0.321264,3.815904,3.31888
1566249496920986410,-0.321264,3.815904,3.31888
1566249496941209575,-0.3252,3.789456,3.390288
1566249496961247290,-0.3252,3.789456,3.390288
1566249496980357822,-0.32912,3.762016,3.46224
1566249497000656113,-0.32912,3.762016,3.46224
1566249497020704006,-0.333056,3.733632,3.534512
1566249497040912076,-0.333056,3.733632,3.534512
1566249497060985108,-0.336944,3.704352,3.606896
1566249497083420236,-0.336944,3.704352,3.606896
1566249497100173641,-0.340816,3.67424,3.679152
1566249497120268479,-0.340816,3.67424,3.679152
1566249497140462332,-0.344624,3.643392,3.751072
1566249497160751294,-0.344624,3.643392,3.751072
1566249497179710887,-0.348384,3.61184,3.822432
1566249497200191191,-0.348384,3.61184,3.822432
1566249497220439743,-0.352064,3.57968,3.893056
1566249497240712487,-0.352064,3.57968,3.893056
1566249497260663219,-0.35568,3.546976,3.962752
1566249497279718330,-0.35568,3.546976,3.962752
1566249497300249110,-0.35568,3.546976,3.962752
1566249497320637732,-0.3592,3.513808,4.031408
1566249497340602471,-0.36264,3.480224,4.098896
1566249497360158053,-0.36264,3.480224,4.098896
1566249497379939259,-0.365984,3.446272,4.165168
1566249497400324460,-0.365984,3.446272,4.165168
1566249497419860323,-0.365984,3.446272,4.165168
1566249497441243954,-0.369216,3.411984,4.230208
1566249497459833500,-0.369216,3.411984,4.230208
1566249497480052540,-0.372384,3.37736,4.294016
1566249497500137375,-0.37544,3.3424,4.35664
1566249497519386382,-0.37544,3.3424,4.35664
1566249497539630316,-0.37544,3.3424,4.35664
1566249497559742608,-0.378416,3.307072,4.418176
1566249497579956983,-0.378416,3.307072,4.418176
1566249497600111175,-0.381328,3.271328,4.478704
1566249497619323335,-0.381328,3.271328,4.478704
1566249497639310662,-0.384144,3.235136,4.538336
1566249497659562216,-0.384144,3.235136,4.538336
1566249497679607009,-0.386912,3.198432,4.597152
1566249497699748847,-0.386912,3.198432,4.597152
1566249497718863478,-0.389584,3.161216,4.655168
1566249497738845054,-0.389584,3.161216,4.655168
1566249497759039765,-0.392208,3.123488,4.7124
1566249497779234252,-0.392208,3.123488,4.7124
1566249497799435320,-0.394752,3.085248,4.7688
1566249497819694255,-0.394752,3.085248,4.7688
1566249497838604446,-0.397216,3.046512,4.8244
1566249497858727138,-0.397216,3.046512,4.8244
1566249497878804028,-0.399616,3.007264,4.879152
1566249497898818667,-0.399616,3.007264,4.879152
1566249497918904233,-0.401952,2.96752,4.933056
1566249497939123048,-0.401952,2.96752,4.933056
1566249497959349666,-0.404192,2.927296,4.986112
1566249497978371307,-0.404192,2.927296,4.986112
1566249497998412411,-0.406384,2.886576,5.038288
1566249498018648891,-0.406384,2.886576,5.038288
1566249498038267273,-0.40848,2.845376,5.089584
1566249498058338207,-0.40848,2.845376,5.089584
1566249498078361956,-0.410512,2.803712,5.139984
1566249498098487117,-0.410512,2.803712,5.139984
1566249498118834444,-0.412464,2.761584,5.189488
1566249498138944447,-0.412464,2.761584,5.189488
1566249498157943682,-0.414336,2.718976,5.23808
1566249498178615587,-0.414336,2.718976,5.23808
1566249498198787791,-0.416144,2.67592,5.285744
1566249498217697967,-0.416144,2.67592,5.285744
1566249498238113982,-0.417856,2.632416,5.33248
1566249498258340354,-0.417856,2.632416,5.33248
1566249498278514196,-0.419504,2.588464,5.378272
1566249498298201476,-0.419504,2.588464,5.378272
1566249498318452964,-0.421072,2.544064,5.423104
1566249498338524681,-0.421072,2.544064,5.423104
1566249498357985193,-0.42256,2.499248,5.46696
1566249498378071449,-0.42256,2.499248,5.46696
1566249498398156873,-0.423968,2.454,5.509856
1566249498418290861,-0.423968,2.454,5.509856
1566249498438336849,-0.425296,2.408336,5.55176
1566249498457515160,-0.425296,2.408336,5.55176
1566249498477661348,-0.426544,2.362256,5.592672
1566249498497593250,-0.426544,2.362256,5.592672
1566249498517643339,-0.427712,2.31576,5.632576
1566249498537702662,-0.427712,2.31576,5.632576
1566249498557960175,-0.4288,2.26888,5.671456
1566249498578629949,-0.4288,2.26888,5.671456
1566249498597758659,-0.429808,2.221616,5.709328
1566249498617884729,-0.429808,2.221616,5.709328
1566249498636995152,-0.430736,2.173952,5.74616
1566249498657190039,-0.430736,2.173952,5.74616
1566249498677932015,-0.431568,2.12592,5.781968
1566249498697007530,-0.431568,2.12592,5.781968
1566249498717095065,-0.432336,2.077504,5.816704
1566249498737494715,-0.432336,2.077504,5.816704
1566249498757409585,-0.433008,2.028736,5.8504
1566249498777524174,-0.433008,2.028736,5.8504
1566249498797478559,-0.4336,1.979616,5.883024
1566249498816713301,-0.4336,1.979616,5.883024
1566249498836755829,-0.434112,1.930144,5.914576
1566249498856946533,-0.434112,1.930144,5.914576
1566249498876888659,-0.434544,1.880336,5.945056
1566249498897136506,-0.434544,1.880336,5.945056
1566249498916499998,-0.43488,1.830208,5.974432
1566249498936774120,-0.43488,1.830208,5.974432
1566249498956681340,-0.435136,1.779744,6.00272
1566249498978544616,-0.435136,1.779744,6.00272
1566249498996188643,-0.435312,1.72896,6.02992
1566249499016385359,-0.435312,1.72896,6.02992
1566249499036728787,-0.435408,1.677872,6.055984
1566249499057995846,-0.435408,1.677872,6.055984
1566249499076707043,-0.435408,1.626496,6.080944
1566249499096870727,-0.435408,1.626496,6.080944
1566249499118211095,-0.435344,1.574816,6.104784
1566249499136523966,-0.435344,1.574816,6.104784
1566249499157291622,-0.435168,1.522864,6.127504
1566249499175987953,-0.435168,1.522864,6.127504
1566249499196314167,-0.434928,1.47064,6.149072
1566249499216451647,-0.434928,1.47064,6.149072
1566249499236603185,-0.434592,1.418144,6.169504
1566249499257080142,-0.434592,1.418144,6.169504
1566249499276354518,-0.434176,1.365392,6.188784
1566249499296470991,-0.434176,1.365392,6.188784
1566249499316441852,-0.433664,1.3124,6.206912
1566249499335593278,-0.433664,1.3124,6.206912
1566249499355829386,-0.433072,1.259168,6.223888
1566249499375841417,-0.433072,1.259168,6.223888
1566249499395823973,-0.4324,1.205712,6.239712
1566249499415774211,-0.4324,1.205712,6.239712
1566249499438343853,-0.431648,1.152032,6.254352
1566249499456192240,-0.431648,1.152032,6.254352
1566249499475331883,-0.4308,1.098144,6.267824
1566249499495357685,-0.4308,1.098144,6.267824
1566249499515625653,-0.429872,1.044048,6.280112
1566249499535537441,-0.429872,1.044048,6.280112
1566249499555816930,-0.428848,0.989776,6.291232
1566249499578942017,-0.428848,0.989776,6.291232
1566249499595635903,-0.427744,0.935312,6.301152
1566249499615674151,-0.427744,0.935312,6.301152
1566249499635809493,-0.42656,0.880688,6.309888
1566249499654927539,-0.42656,0.880688,6.309888
1566249499674953204,-0.42528,0.825888,6.31744
1566249499695109084,-0.42528,0.825888,6.31744
1566249499715357566,-0.423936,0.770944,6.323792
1566249499736136869,-0.423936,0.770944,6.323792
1566249499755635026,-0.42248,0.715856,6.328944
1566249499774685103,-0.42248,0.715856,6.328944
1566249499794918040,-0.42096,0.66064,6.332896
1566249499815228323,-0.42096,0.66064,6.332896
1566249499835211341,-0.419344,0.605296,6.335648
1566249499854816287,-0.419344,0.605296,6.335648
1566249499875075196,-0.417648,0.54984,6.337184
1566249499895389457,-0.417648,0.54984,6.337184
1566249499915326829,-0.415872,0.494288,6.337504
1566249499934294376,-0.415872,0.494288,6.337504
1566249499954592339,-0.414,0.438656,6.336624
1566249499974713198,-0.414,0.438656,6.336624
1566249499994845133,-0.412048,0.382928,6.334528
1566249500015001620,-0.412048,0.382928,6.334528
1566249500035201107,-0.410016,0.327136,6.331232
1566249500054240485,-0.410016,0.327136,6.331232
1566249500074410787,-0.407904,0.27128,6.326704
1566249500094450837,-0.407904,0.27128,6.326704
1566249500114729087,-0.405696,0.215376,6.32096
1566249500134631439,-0.405696,0.215376,6.32096
1566249500154874657,-0.403424,0.15944,6.314
1566249500174896684,-0.403424,0.15944,6.314
1566249500194187890,-0.401056,0.103472,6.305824
1566249500214249621,-0.401056,0.103472,6.305824
1566249500234294205,-0.398608,0.047488,6.296432
1566249500254257626,-0.398608,0.047488,6.296432
1566249500274454041,-0.39608,-0.008512,6.285824
1566249500295486191,-0.39608,-0.008512,6.285824
1566249500313468888,-0.393456,-0.064496,6.273984
1566249500335436396,-0.393456,-0.064496,6.273984
1566249500354039587,-0.390768,-0.120448,6.260928
1566249500374115187,-0.390768,-0.120448,6.260928
1566249500395617252,-0.388,-0.1764,6.246672
1566249500414274722,-0.388,-0.1764,6.246672
1566249500433454965,-0.385136,-0.232288,6.231184
1566249500453544072,-0.385136,-0.232288,6.231184
1566249500473590761,-0.382208,-0.288144,6.21448
1566249500493667327,-0.382208,-0.288144,6.21448
1566249500513723906,-0.379184,-0.343936,6.19656
1566249500533819228,-0.379184,-0.343936,6.19656
1566249500554204298,-0.376096,-0.399648,6.177424
1566249500573240744,-0.376096,-0.399648,6.177424
1566249500593470916,-0.372928,-0.45528,6.157088
1566249500613565941,-0.372928,-0.45528,6.157088
1566249500633529546,-0.36968,-0.510816,6.135536
1566249500653688346,-0.36968,-0.510816,6.135536
1566249500673893514,-0.366352,-0.56624,6.112768
1566249500692992309,-0.366352,-0.56624,6.112768
1566249500713115227,-0.362944,-0.621552,6.0888
1566249500733234848,-0.362944,-0.621552,6.0888
1566249500752825152,-0.359456,-0.676736,6.063632
1566249500772908007,-0.359456,-0.676736,6.063632
1566249500793016346,-0.355904,-0.731776,6.037264
1566249500813059358,-0.355904,-0.731776,6.037264
1566249500833350678,-0.352272,-0.786656,6.009696
1566249500852662210,-0.352272,-0.786656,6.009696
1566249500872756365,-0.34856,-0.841376,5.980944
1566249500893039349,-0.34856,-0.841376,5.980944
1566249500913067156,-0.344784,-0.89592,5.950992
1566249500933054969,-0.344784,-0.89592,5.950992
1566249500953174767,-0.340928,-0.950288,5.91984
1566249500972241918,-0.340928,-0.950288,5.91984
1566249500992895320,-0.336992,-1.004432,5.88752
1566249501012881740,-0.336992,-1.004432,5.88752
1566249501032945884,-0.332992,-1.058384,5.854032
1566249501056305760,-0.332992,-1.058384,5.854032
1566249501072759261,-0.328912,-1.112112,5.81936
1566249501092877288,-0.328912,-1.112112,5.81936
1566249501112874635,-0.324768,-1.165584,5.783504
1566249501132013956,-0.324768,-1.165584,5.783504
1566249501152111297,-0.32056,-1.218832,5.746496
1566249501172246618,-0.32056,-1.218832,5.746496
1566249501192340171,-0.316272,-1.271808,5.708336
1566249501211910474,-0.316272,-1.271808,5.708336
1566249501231976177,-0.31192,-1.324512,5.669008
1566249501251984501,-0.31192,-1.324512,5.669008
1566249501272210404,-0.307504,-1.376944,5.628544
1566249501293693010,-0.307504,-1.376944,5.628544
1566249501312662774,-0.303008,-1.429072,5.586928
1566249501333389770,-0.303008,-1.429072,5.586928
1566249501352374053,-0.298464,-1.480896,5.544176
1566249501371729744,-0.298464,-1.480896,5.544176
1566249501391661177,-0.29384,-1.532416,5.500288
1566249501411687193,-0.29384,-1.532416,5.500288
1566249501431720859,-0.289152,-1.583584,5.45528
1566249501451989491,-0.289152,-1.583584,5.45528
1566249501472375067,-0.2844,-1.634416,5.409152
1566249501491265622,-0.2844,-1.634416,5.409152
1566249501511333324,-0.279584,-1.684912,5.361904
1566249501531398298,-0.279584,-1.684912,5.361904
1566249501551473528,-0.27472,-1.735024,5.313568
1566249501571608717,-0.27472,-1.735024,5.313568
1566249501591762701,-0.269776,-1.784752,5.264128
1566249501611860171,-0.269776,-1.784752,5.264128
1566249501632039030,-0.264784,-1.834112,5.2136
1566249501651067483,-0.264784,-1.834112,5.2136
1566249501671169155,-0.259728,-1.883056,5.161984
1566249501691285703,-0.259728,-1.883056,5.161984
1566249501711481006,-0.254608,-1.931584,5.109296
1566249501731339689,-0.254608,-1.931584,5.109296
1566249501751570704,-0.249424,-1.979696,5.055552
1566249501771710052,-0.249424,-1.979696,5.055552
1566249501791287894,-0.244208,-2.027376,5.000736
1566249501811432253,-0.244208,-2.027376,5.000736
1566249501831540998,-0.238912,-2.074608,4.94488
1566249501850665463,-0.238912,-2.074608,4.94488
1566249501870786456,-0.233568,-2.12136,4.887984
1566249501890897306,-0.233568,-2.12136,4.887984
1566249501910948306,-0.228176,-2.167664,4.830048
1566249501930966209,-0.228176,-2.167664,4.830048
1566249501951067375,-0.22272,-2.213472,4.771104
1566249501971197509,-0.22272,-2.213472,4.771104
1566249501990222437,-0.217232,-2.258784,4.711136
1566249502010219664,-0.217232,-2.258784,4.711136
1566249502030249003,-0.211664,-2.3036,4.650176
1566249502050451160,-0.211664,-2.3036,4.650176
1566249502070670016,-0.206064,-2.347888,4.588208
1566249502090940562,-0.206064,-2.347888,4.588208
1566249502110939452,-0.200416,-2.391664,4.525264
1566249502130102895,-0.200416,-2.391664,4.525264
1566249502150381446,-0.19472,-2.43488,4.461344
1566249502170539136,-0.19472,-2.43488,4.461344
1566249502190564850,-0.188976,-2.477552,4.396464
1566249502210781380,-0.188976,-2.477552,4.396464
1566249502229882046,-0.183184,-2.519664,4.33064
1566249502250520327,-0.183184,-2.519664,4.33064
1566249502269594765,-0.177344,-2.5612,4.263856
1566249502290108140,-0.177344,-2.5612,4.263856
1566249502310316557,-0.171472,-2.602144,4.19616
1566249502330372145,-0.171472,-2.602144,4.19616
1566249502349503955,-0.165536,-2.642496,4.127536
1566249502369761632,-0.165536,-2.642496,4.127536
1566249502389962851,-0.159584,-2.68224,4.058
1566249502410032457,-0.159584,-2.68224,4.058
1566249502430034418,-0.153568,-2.721376,3.987584
1566249502450043328,-0.153568,-2.721376,3.987584
1566249502470424057,-0.147536,-2.759872,3.916272
1566249502489372651,-0.147536,-2.759872,3.916272
1566249502509475104,-0.141456,-2.797728,3.84408
1566249502529593051,-0.141456,-2.797728,3.84408
1566249502549729861,-0.135344,-2.834928,3.77104
1566249502570026011,-0.135344,-2.834928,3.77104
1566249502589964549,-0.129184,-2.871472,3.697152
1566249502609346035,-0.129184,-2.871472,3.697152
1566249502629296628,-0.122992,-2.907344,3.622432
1566249502649331211,-0.122992,-2.907344,3.622432
1566249502669718862,-0.116784,-2.942544,3.54688
1566249502689752856,-0.116784,-2.942544,3.54688
1566249502708957648,-0.110528,-2.97704,3.470528
1566249502728940690,-0.110528,-2.97704,3.470528
1566249502749026610,-0.104256,-3.010832,3.393392
1566249502769098689,-0.104256,-3.010832,3.393392
1566249502789463909,-0.097936,-3.04392,3.315456
1566249502808646525,-0.097936,-3.04392,3.315456
1566249502829219532,-0.0916,-3.076272,3.236752
1566249502849272542,-0.0916,-3.076272,3.236752
1566249502869243901,-0.085232,-3.107904,3.157296
1566249502888466567,-0.085232,-3.107904,3.157296
1566249502908918069,-0.078848,-3.138784,3.077104
1566249502929018916,-0.078848,-3.138784,3.077104
1566249502949142071,-0.072432,-3.168912,2.996176
1566249502968376566,-0.072432,-3.168912,2.996176
1566249502988951586,-0.066,-3.198272,2.914544
1566249503008907190,-0.066,-3.198272,2.914544
1566249503029000171,-0.059536,-3.22688,2.832224
1566249503049191504,-0.059536,-3.22688,2.832224
1566249503068457095,-0.053072,-3.254688,2.749216
1566249503089143758,-0.053072,-3.254688,2.749216
1566249503108203868,-0.046576,-3.281712,2.665536
1566249503128622624,-0.046576,-3.281712,2.665536
1566249503148691020,-0.040064,-3.307936,2.5812
1566249503168863163,-0.040064,-3.307936,2.5812
1566249503187886235,-0.033536,-3.333344,2.496224
1566249503208181059,-0.033536,-3.333344,2.496224
1566249503228152602,-0.026992,-3.357936,2.41064
1566249503248536652,-0.026992,-3.357936,2.41064
1566249503268796173,-0.020432,-3.381712,2.324448
1566249503287868340,-0.020432,-3.381712,2.324448
1566249503307938114,-0.013872,-3.40464,2.237664
1566249503327993311,-0.013872,-3.40464,2.237664
1566249503348171364,-0.007296,-3.426736,2.150304
1566249503368284678,-0.007296,-3.426736,2.150304
1566249503388506956,-0.000704,-3.447984,2.062384
1566249503407560174,-0.000704,-3.447984,2.062384
1566249503429876813,0.005888,-3.468368,1.973936
1566249503447650214,0.005888,-3.468368,1.973936
1566249503467847929,0.012496,-3.487872,1.88496
1566249503488014454,0.012496,-3.487872,1.88496
1566249503508239459,0.019088,-3.506512,1.795472
1566249503528423831,0.019088,-3.506512,1.795472
1566249503547779699,0.025696,-3.524272,1.705488
1566249503567838606,0.025696,-3.524272,1.705488
1566249503587855336,0.032304,-3.541136,1.61504
1566249503607056962,0.032304,-3.541136,1.61504
1566249503627250433,0.038912,-3.557088,1.524144
1566249503647548789,0.038912,-3.557088,1.524144
1566249503667550883,0.04552,-3.57216,1.4328
1566249503687538892,0.04552,-3.57216,1.4328
1566249503707976476,0.052128,-3.586304,1.34104
1566249503726940262,0.052128,-3.586304,1.34104
1566249503747511605,0.05872,-3.59952,1.24888
1566249503767662103,0.05872,-3.59952,1.24888
1566249503786912464,0.065312,-3.611824,1.156336
1566249503807007596,0.065312,-3.611824,1.156336
1566249503827173252,0.071904,-3.6232,1.06344
1566249503847219452,0.071904,-3.6232,1.06344
1566249503867478931,0.07848,-3.633632,0.970176
1566249503887524846,0.07848,-3.633632,0.970176
1566249503906470520,0.08504,-3.64312,0.876592
1566249503926679096,0.08504,-3.64312,0.876592
1566249503946706681,0.0916,-3.651648,0.782704
1566249503966766795,0.0916,-3.651648,0.782704
1566249503986862061,0.098144,-3.659232,0.688528
1566249504007053243,0.098144,-3.659232,0.688528
1566249504027139018,0.104656,-3.665856,0.59408
1566249504046272381,0.104656,-3.665856,0.59408
1566249504066403276,0.111168,-3.671504,0.499392
1566249504086533743,0.111168,-3.671504,0.499392
1566249504106838685,0.117648,-3.676176,0.404464
1566249504125969794,0.117648,-3.676176,0.404464
1566249504146038773,0.124128,-3.679872,0.309328
1566249504166174669,0.124128,-3.679872,0.309328
1566249504186228062,0.130576,-3.682592,0.214
1566249504206236050,0.130576,-3.682592,0.214
1566249504226484321,0.136992,-3.684336,0.118496
1566249504246408017,0.136992,-3.684336,0.118496
1566249504267847174,0.143392,-3.685072,0.022848
1566249504285850357,0.143392,-3.685072,0.022848
1566249504306252937,0.14976,-3.684816,-0.072928
1566249504326464342,0.14976,-3.684816,-0.072928
1566249504346489477,0.156096,-3.683568,-0.168816
1566249504365564159,0.156096,-3.683568,-0.168816
1566249504385641268,0.162416,-3.681312,-0.264784
1566249504406047246,0.162416,-3.681312,-0.264784
1566249504426144766,0.168704,-3.678048,-0.360832
1566249504446350576,0.168704,-3.678048,-0.360832
1566249504468495378,0.174944,-3.673792,-0.456912
1566249504485684435,0.174944,-3.673792,-0.456912
1566249504505888906,0.181152,-3.668512,-0.553024
1566249504526240230,0.181152,-3.668512,-0.553024
1566249504545280731,0.187344,-3.662208,-0.649136
1566249504565307191,0.187344,-3.662208,-0.649136
1566249504585524089,0.193472,-3.654912,-0.745216
1566249504605654161,0.193472,-3.654912,-0.745216
1566249504625900602,0.199568,-3.646576,-0.841264
1566249504644951607,0.199568,-3.646576,-0.841264
1566249504665273463,0.205632,-3.637232,-0.937248
1566249504685455546,0.205632,-3.637232,-0.937248
1566249504705607362,0.211648,-3.626864,-1.033152
1566249504725609638,0.211648,-3.626864,-1.033152
1566249504745675028,0.217616,-3.615456,-1.128928
1566249504765215547,0.217616,-3.615456,-1.128928
1566249504784954427,0.223536,-3.60304,-1.224592
1566249504804880907,0.223536,-3.60304,-1.224592
1566249504825407286,0.229408,-3.5896,-1.320096
1566249504845573145,0.229408,-3.5896,-1.320096
1566249504864859844,0.235232,-3.57512,-1.415408
1566249504884826755,0.235232,-3.57512,-1.415408
1566249504905159570,0.241008,-3.559632,-1.510528
1566249504925320264,0.241008,-3.559632,-1.510528
1566249504944381565,0.24672,-3.543104,-1.60544
1566249504964270808,0.24672,-3.543104,-1.60544
1566249504984438847,0.252384,-3.525552,-1.70008
1566249505004567426,0.252384,-3.525552,-1.70008
1566249505024599707,0.258,-3.506976,-1.794464
1566249505044737365,0.258,-3.506976,-1.794464
1566249505065170058,0.263552,-3.487376,-1.888544
1566249505085098145,0.263552,-3.487376,-1.888544
1566249505104132353,0.26904,-3.466736,-1.98232
1566249505124328888,0.26904,-3.466736,-1.98232
1566249505144386297,0.274464,-3.445088,-2.075728
1566249505164424423,0.274464,-3.445088,-2.075728
1566249505184333476,0.279824,-3.422416,-2.168784
1566249505205105976,0.279824,-3.422416,-2.168784
1566249505224254255,0.28512,-3.39872,-2.261456
1566249505244154270,0.28512,-3.39872,-2.261456
1566249505264149518,0.290352,-3.374016,-2.353696
1566249505284915219,0.290352,-3.374016,-2.353696
1566249505304309535,0.295504,-3.348288,-2.445504
1566249505324244029,0.295504,-3.348288,-2.445504
1566249505344360616,0.300608,-3.321552,-2.536848
1566249505364330413,0.300608,-3.321552,-2.536848
1566249505384540146,0.305616,-3.293792,-2.627712
1566249505403571546,0.305616,-3.293792,-2.627712
1566249505424095522,0.31056,-3.26504,-2.718048
1566249505444438476,0.31056,-3.26504,-2.718048
1566249505463443345,0.31544,-3.23528,-2.80784
1566249505483693087,0.31544,-3.23528,-2.80784
1566249505503740848,0.320224,-3.204528,-2.897072
1566249505523833840,0.320224,-3.204528,-2.897072
1566249505543851732,0.324944,-3.172784,-2.985712
1566249505563963788,0.324944,-3.172784,-2.985712
1566249505582944011,0.329568,-3.140048,-3.073744
1566249505603133612,0.329568,-3.140048,-3.073744
1566249505623205333,0.334112,-3.10632,-3.16112
1566249505643322565,0.334112,-3.10632,-3.16112
1566249505663448207,0.338592,-3.071616,-3.24784
1566249505684871646,0.338592,-3.071616,-3.24784
1566249505704025655,0.34296,-3.035936,-3.333872
1566249505722929371,0.34296,-3.035936,-3.333872
1566249505742925672,0.347248,-2.99928,-3.419168
1566249505763133044,0.347248,-2.99928,-3.419168
1566249505783080753,0.351456,-2.96168,-3.503728
1566249505803608296,0.351456,-2.96168,-3.503728
1566249505823106040,0.355568,-2.923104,-3.58752
1566249505842927064,0.355568,-2.923104,-3.58752
1566249505862963583,0.359584,-2.883584,-3.670512
1566249505883125348,0.359584,-2.883584,-3.670512
1566249505903253159,0.36352,-2.843136,-3.752688
1566249505923216464,0.36352,-2.843136,-3.752688
1566249505942461635,0.367344,-2.801744,-3.834016
1566249505962657082,0.367344,-2.801744,-3.834016
1566249505982726513,0.371072,-2.759424,-3.914464
1566249506002695680,0.371072,-2.759424,-3.914464
1566249506022874937,0.374704,-2.716176,-3.994016
1566249506043007627,0.374704,-2.716176,-3.994016
1566249506063014141,0.37824,-2.672032,-4.07264
1566249506082144938,0.37824,-2.672032,-4.07264
1566249506102432661,0.381664,-2.626976,-4.150304
1566249506122601789,0.381664,-2.626976,-4.150304
1566249506142731331,0.384992,-2.581024,-4.226992
1566249506162747550,0.384992,-2.581024,-4.226992
1566249506182876800,0.388224,-2.534208,-4.302672
1566249506202604906,0.388224,-2.534208,-4.302672
1566249506222126907,0.391328,-2.486496,-4.377328
1566249506242096992,0.391328,-2.486496,-4.377328
1566249506264885268,0.394336,-2.437936,-4.450912
1566249506282472351,0.394336,-2.437936,-4.450912
1566249506301697487,0.397232,-2.388512,-4.523424
1566249506321843889,0.397232,-2.388512,-4.523424
1566249506342023118,0.400016,-2.33824,-4.594816
1566249506362365284,0.400016,-2.33824,-4.594816
1566249506382511190,0.402688,-2.287152,-4.665072
1566249506401480426,0.402688,-2.287152,-4.665072
1566249506421655981,0.405232,-2.235232,-4.73416
1566249506441988055,0.405232,-2.235232,-4.73416
1566249506462068689,0.40768,-2.182512,-4.802064
1566249506482251473,0.40768,-2.182512,-4.802064
1566249506501428953,0.41,-2.128976,-4.868752
1566249506521548271,0.41,-2.128976,-4.868752
1566249506541664186,0.412208,-2.074672,-4.934192
1566249506561768942,0.412208,-2.074672,-4.934192
1566249506582018527,0.414288,-2.0196,-4.998384
1566249506602011124,0.414288,-2.0196,-4.998384
1566249506621293119,0.416256,-1.96376,-5.061264
1566249506641602681,0.416256,-1.96376,-5.061264
1566249506661816972,0.41808,-1.907168,-5.122816
1566249506681041401,0.41808,-1.907168,-5.122816
1566249506701132804,0.419792,-1.849856,-5.18304
1566249506723493230,0.419792,-1.849856,-5.18304
1566249506741720899,0.421392,-1.791824,-5.241888
1566249506760861956,0.421392,-1.791824,-5.241888
1566249506780876248,0.422848,-1.733072,-5.299344
1566249506801126358,0.422848,-1.733072,-5.299344
1566249506821484418,0.424176,-1.673648,-5.35536
1566249506841339646,0.424176,-1.673648,-5.35536
1566249506860859030,0.424176,-1.673648,-5.35536
1566249506881300153,0.425376,-1.613552,-5.409952
1566249506901508629,0.426448,-1.552784,-5.463056
1566249506921383338,0.426448,-1.552784,-5.463056
1566249506941257684,0.427392,-1.491376,-5.514672
1566249506961629023,0.427392,-1.491376,-5.514672
1566249506980732332,0.427392,-1.491376,-5.514672
1566249507001031613,0.428208,-1.429344,-5.564768
1566249507021198828,0.42888,-1.366704,-5.613312
1566249507041243259,0.42888,-1.366704,-5.613312
1566249507060374127,0.42888,-1.366704,-5.613312
1566249507080496235,0.429408,-1.303472,-5.660272
1566249507101424665,0.429408,-1.303472,-5.660272
1566249507120903655,0.429808,-1.239648,-5.705664
1566249507140792681,0.429808,-1.239648,-5.705664
1566249507161082504,0.43008,-1.175264,-5.749424
1566249507180355361,0.43008,-1.175264,-5.749424
1566249507200163257,0.430208,-1.110352,-5.791536
1566249507220714954,0.430208,-1.110352,-5.791536
1566249507240581665,0.430192,-1.044912,-5.832
1566249507261532779,0.430192,-1.044912,-5.832
1566249507279716300,0.430032,-0.97896,-5.870752
1566249507299955819,0.430032,-0.97896,-5.870752
1566249507321447184,0.429744,-0.912512,-5.907808
1566249507340411453,0.429744,-0.912512,-5.907808
1566249507360501497,0.429296,-0.8456,-5.943136
1566249507379513216,0.429296,-0.8456,-5.943136
1566249507399567720,0.42872,-0.77824,-5.976704
1566249507419836304,0.42872,-0.77824,-5.976704
1566249507439971452,0.428,-0.710448,-6.008496
1566249507460060758,0.428,-0.710448,-6.008496
1566249507480300282,0.42712,-0.64224,-6.03848
1566249507499293163,0.42712,-0.64224,-6.03848
1566249507519301802,0.426112,-0.573648,-6.066656
1566249507539665536,0.426112,-0.573648,-6.066656
1566249507559794199,0.424944,-0.504672,-6.092976
1566249507579969102,0.424944,-0.504672,-6.092976
1566249507599998304,0.423648,-0.435344,-6.117456
1566249507620971663,0.423648,-0.435344,-6.117456
1566249507645285541,0.422192,-0.365696,-6.140032
1566249507659487753,0.422192,-0.365696,-6.140032
1566249507679401029,0.420592,-0.295728,-6.16072
1566249507698981179,0.420592,-0.295728,-6.16072
1566249507719293344,0.418848,-0.225488,-6.179504
1566249507739407785,0.418848,-0.225488,-6.179504
1566249507759416537,0.416944,-0.15496,-6.19632
1566249507779362362,0.416944,-0.15496,-6.19632
1566249507799702701,0.414912,-0.084208,-6.2112
1566249507818782436,0.414912,-0.084208,-6.2112
1566249507838700650,0.412704,-0.013216,-6.224112
1566249507858801472,0.412704,-0.013216,-6.224112
1566249507878892288,0.410368,0.057968,-6.235008
1566249507898973518,0.410368,0.057968,-6.235008
1566249507919028552,0.407872,0.129328,-6.24392
1566249507939078508,0.405232,0.200848,-6.2508
1566249507959278191,0.405232,0.200848,-6.2508
1566249507978249656,0.405232,0.200848,-6.2508
1566249507998418163,0.402448,0.272512,-6.255632
1566249508018526354,0.402448,0.272512,-6.255632
1566249508038656648,0.399504,0.344272,-6.258432
1566249508058762196,0.399504,0.344272,-6.258432
1566249508078856497,0.396416,0.416112,-6.259152
1566249508098125158,0.396416,0.416112,-6.259152
1566249508118189898,0.393168,0.488032,-6.257776
1566249508138399637,0.393168,0.488032,-6.257776
1566249508158437142,0.389792,0.559984,-6.25432
1566249508178619744,0.389792,0.559984,-6.25432
1566249508198847654,0.38624,0.631936,-6.248752
1566249508217898052,0.38624,0.631936,-6.248752
1566249508238018699,0.38256,0.703888,-6.241072
1566249508258439621,0.38256,0.703888,-6.241072
1566249508278403990,0.37872,0.775808,-6.231248
1566249508298365945,0.37872,0.775808,-6.231248
1566249508317546524,0.374736,0.847664,-6.219296
1566249508337717513,0.374736,0.847664,-6.219296
1566249508357811778,0.370608,0.91944,-6.205184
1566249508377920859,0.370608,0.91944,-6.205184
1566249508398094158,0.366336,0.991104,-6.188912
1566249508418307033,0.366336,0.991104,-6.188912
1566249508437366221,0.361904,1.06264,-6.170464
1566249508457437227,0.361904,1.06264,-6.170464
1566249508477651427,0.357328,1.134016,-6.149856
1566249508497997335,0.357328,1.134016,-6.149856
1566249508517954506,0.352608,1.2052,-6.127056
1566249508538024156,0.352608,1.2052,-6.127056
1566249508557170519,0.34776,1.276176,-6.102064
1566249508577307117,0.34776,1.276176,-6.102064
1566249508597431131,0.342752,1.346928,-6.07488
1566249508618181652,0.342752,1.346928,-6.07488
1566249508637722558,0.3376,1.417392,-6.045488
1566249508657869989,0.3376,1.417392,-6.045488
1566249508676962962,0.332304,1.487584,-6.013904
1566249508697111125,0.332304,1.487584,-6.013904
1566249508717391204,0.32688,1.557472,-5.980112
1566249508737465350,0.32688,1.557472,-5.980112
1566249508757541512,0.321312,1.627008,-5.944096
1566249508776665166,0.321312,1.627008,-5.944096
1566249508796844837,0.3156,1.696176,-5.905888
1566249508816994928,0.3156,1.696176,-5.905888
1566249508837143432,0.309744,1.764944,-5.865472
1566249508857229984,0.309744,1.764944,-5.865472
1566249508877488067,0.30376,1.833312,-5.822832
1566249508896865179,0.30376,1.833312,-5.822832
1566249508916832051,0.297648,1.901216,-5.778
1566249508936853927,0.297648,1.901216,-5.778
1566249508957034987,0.291392,1.968656,-5.73096
1566249508977199609,0.291392,1.968656,-5.73096
1566249508996216916,0.285008,2.0356,-5.681712
1566249509016368015,0.285008,2.0356,-5.681712
1566249509036636905,0.278496,2.102016,-5.630272
1566249509056847933,0.278496,2.102016,-5.630272
1566249509076959112,0.271856,2.167888,-5.576624
1566249509096957268,0.271856,2.167888,-5.576624
1566249509116237697,0.265088,2.233168,-5.520816
1566249509136527546,0.265088,2.233168,-5.520816
1566249509156475341,0.258208,2.297856,-5.462816
1566249509176605741,0.258208,2.297856,-5.462816
1566249509196867557,0.251184,2.361904,-5.40264
1566249509215873262,0.251184,2.361904,-5.40264
1566249509235922695,0.244048,2.425296,-5.34032
1566249509256137858,0.244048,2.425296,-5.34032
1566249509276472323,0.2368,2.488,-5.27584
1566249509296525915,0.2368,2.488,-5.27584
1566249509316600521,0.22944,2.549984,-5.209216
1566249509335729058,0.22944,2.549984,-5.209216
1566249509355988703,0.221952,2.611248,-5.140464
1566249509376034483,0.221952,2.611248,-5.140464
1566249509396145695,0.214352,2.671744,-5.069616
1566249509416248311,0.214352,2.671744,-5.069616
1566249509435487707,0.206656,2.73144,-4.996656
1566249509455596464,0.206656,2.73144,-4.996656
1566249509475674344,0.198832,2.79032,-4.921616
1566249509495798162,0.198832,2.79032,-4.921616
1566249509516017811,0.190928,2.848368,-4.844512
1566249509536183973,0.190928,2.848368,-4.844512
1566249509555331885,0.182896,2.905536,-4.765344
1566249509575319554,0.182896,2.905536,-4.765344
1566249509595673370,0.174784,2.961808,-4.68416
1566249509615654764,0.174784,2.961808,-4.68416
1566249509635788842,0.166576,3.017152,-4.600976
1566249509655957910,0.166576,3.017152,-4.600976
1566249509675033886,0.158272,3.071568,-4.515792
1566249509695219869,0.158272,3.071568,-4.515792
1566249509715358509,0.149872,3.124992,-4.42864
1566249509735560316,0.149872,3.124992,-4.42864
1566249509755632954,0.141376,3.17744,-4.339552
1566249509774795137,0.141376,3.17744,-4.339552
1566249509794914876,0.132816,3.228848,-4.248544
1566249509815159752,0.132816,3.228848,-4.248544
1566249509835273571,0.12416,3.279216,-4.155632
1566249509855409150,0.12416,3.279216,-4.155632
1566249509875442767,0.115424,3.328496,-4.060864
1566249509894706792,0.115424,3.328496,-4.060864
1566249509914630365,0.106624,3.376688,-3.964256
1566249509934936844,0.106624,3.376688,-3.964256
1566249509955102635,0.097744,3.42376,-3.86584
1566249509975229116,0.097744,3.42376,-3.86584
1566249509995388435,0.0888,3.46968,-3.765648
1566249510014474269,0.0888,3.46968,-3.765648
1566249510034589475,0.079792,3.514432,-3.663696
1566249510054778965,0.079792,3.514432,-3.663696
1566249510074908520,0.07072,3.558,-3.560032
1566249510095020828,0.07072,3.558,-3.560032
1566249510114067456,0.0616,3.600336,-3.454688
1566249510134177125,0.0616,3.600336,-3.454688
1566249510154474469,0.052416,3.64144,-3.347696
1566249510174552115,0.052416,3.64144,-3.347696
1566249510194708866,0.043184,3.681264,-3.239104
1566249510214869442,0.043184,3.681264,-3.239104
1566249510234007832,0.033904,3.719824,-3.128912
1566249510254118146,0.033904,3.719824,-3.128912
1566249510274320637,0.024592,3.757056,-3.0172
1566249510294324319,0.024592,3.757056,-3.0172
1566249510314545045,0.015232,3.79296,-2.903984
1566249510333504963,0.015232,3.79296,-2.903984
1566249510353647521,0.00584,3.82752,-2.789312
1566249510373868345,0.00584,3.82752,-2.789312
1566249510394060568,-0.003584,3.860704,-2.673232
1566249510414215967,-0.003584,3.860704,-2.673232
1566249510434257442,-0.013024,3.892496,-2.555776
1566249510453521096,-0.013024,3.892496,-2.555776
1566249510473463384,-0.022496,3.922864,-2.436976
1566249510493575223,-0.022496,3.922864,-2.436976
1566249510513757810,-0.031984,3.951808,-2.316896
1566249510534003252,-0.031984,3.951808,-2.316896
1566249510554023045,-0.041488,3.979296,-2.195584
1566249510573131220,-0.041488,3.979296,-2.195584
1566249510593350511,-0.051008,4.005312,-2.073056
1566249510613519241,-0.051008,4.005312,-2.073056
1566249510633600054,-0.060512,4.029824,-1.949408
1566249510653698134,-0.060512,4.029824,-1.949408
1566249510673907185,-0.070032,4.052832,-1.82464
1566249510693133796,-0.070032,4.052832,-1.82464
1566249510713230357,-0.079552,4.07432,-1.698832
1566249510733388773,-0.079552,4.07432,-1.698832
1566249510753579704,-0.08904,4.09424,-1.572032
1566249510773735732,-0.08904,4.09424,-1.572032
1566249510792900787,-0.098544,4.112624,-1.444272
1566249510812965996,-0.098544,4.112624,-1.444272
1566249510833081150,-0.108,4.129408,-1.315632
1566249510853297394,-0.108,4.129408,-1.315632
1566249510873490438,-0.117456,4.144608,-1.186144
1566249510893515323,-0.117456,4.144608,-1.186144
1566249510912914055,-0.12688,4.158192,-1.055872
1566249510932894955,-0.12688,4.158192,-1.055872
1566249510953021429,-0.136272,4.170144,-0.92488
1566249510973189323,-0.136272,4.170144,-0.92488
1566249510993356423,-0.145616,4.180464,-0.7932
1566249511012497591,-0.145616,4.180464,-0.7932
1566249511032696726,-0.154928,4.189136,-0.660912
1566249511052747741,-0.154928,4.189136,-0.660912
1566249511072963830,-0.164192,4.196144,-0.528064
1566249511093132749,-0.164192,4.196144,-0.528064
1566249511112203733,-0.173408,4.201456,-0.394704
1566249511132288577,-0.173408,4.201456,-0.394704
1566249511152462519,-0.18256,4.205088,-0.260912
1566249511172889247,-0.18256,4.205088,-0.260912
1566249511192844180,-0.191664,4.207024,-0.126736
1566249511212895109,-0.191664,4.207024,-0.126736
1566249511231977698,-0.200688,4.207232,0.007744
1566249511252201474,-0.200688,4.207232,0.007744
1566249511272362938,-0.209648,4.205728,0.142496
1566249511292542240,-0.209648,4.205728,0.142496
1566249511312484610,-0.218544,4.202496,0.27744
1566249511331788505,-0.218544,4.202496,0.27744
1566249511351880510,-0.227344,4.19752,0.412528
1566249511372183441,-0.227344,4.19752,0.412528
1566249511392090004,-0.236064,4.190784,0.547664
1566249511412437386,-0.236064,4.190784,0.547664
1566249511431478503,-0.244688,4.182304,0.682816
1566249511451474178,-0.244688,4.182304,0.682816
1566249511471687586,-0.253232,4.172064,0.81792
1566249511491815929,-0.253232,4.172064,0.81792
1566249511511979728,-0.261664,4.160048,0.95288
1566249511532173379,-0.261664,4.160048,0.95288
1566249511551151625,-0.27,4.146272,1.087648
1566249511571339468,-0.27,4.146272,1.087648
1566249511591596165,-0.278208,4.130704,1.222176
1566249511611692836,-0.278208,4.130704,1.222176
1566249511631814146,-0.28632,4.11336,1.356368
1566249511652212978,-0.28632,4.11336,1.356368
1566249511671094127,-0.294304,4.09424,1.49016
1566249511691191793,-0.294304,4.09424,1.49016
1566249511711297579,-0.30216,4.073328,1.623504
1566249511731495950,-0.30216,4.073328,1.623504
1566249511751645025,-0.309904,4.050624,1.75632
1566249511770748990,-0.309904,4.050624,1.75632
1566249511790884337,-0.317504,4.026144,1.888544
1566249511811202486,-0.317504,4.026144,1.888544
1566249511831344341,-0.32496,3.999888,2.020096
1566249511851431877,-0.32496,3.999888,2.020096
1566249511871648552,-0.332272,3.971824,2.150912
1566249511890820173,-0.332272,3.971824,2.150912
1566249511910901743,-0.33944,3.942,2.280928
1566249511931981702,-0.33944,3.942,2.280928
1566249511951059935,-0.346464,3.910384,2.41008
1566249511971338212,-0.346464,3.910384,2.41008
1566249511990402590,-0.353328,3.876992,2.538304
1566249512010524707,-0.353328,3.876992,2.538304
1566249512030774231,-0.360016,3.841824,2.665504
1566249512050842463,-0.360016,3.841824,2.665504
1566249512070997392,-0.366544,3.804912,2.791632
1566249512091109902,-0.366544,3.804912,2.791632
1566249512110137987,-0.372912,3.766224,2.916608
1566249512130367192,-0.372912,3.766224,2.916608
1566249512150494403,-0.379104,3.725792,3.040368
1566249512170612707,-0.379104,3.725792,3.040368
1566249512190726503,-0.385104,3.683616,3.162848
1566249512210972891,-0.385104,3.683616,3.162848
1566249512230077570,-0.390928,3.639712,3.283968
1566249512250206307,-0.390928,3.639712,3.283968
1566249512270405241,-0.39656,3.59408,3.403664
1566249512290588014,-0.39656,3.59408,3.403664
1566249512310626453,-0.402,3.546752,3.521888
1566249512329740644,-0.402,3.546752,3.521888
1566249512350320292,-0.407248,3.497712,3.638528
1566249512370090745,-0.407248,3.497712,3.638528
1566249512390220266,-0.412304,3.446992,3.753552
1566249512410728511,-0.412304,3.446992,3.753552
1566249512429365336,-0.417152,3.394592,3.866896
1566249512449489188,-0.417152,3.394592,3.866896
1566249512469720108,-0.421776,3.340544,3.978464
1566249512489841434,-0.421776,3.340544,3.978464
1566249512509995994,-0.426208,3.284864,4.088192
1566249512530102919,-0.426208,3.284864,4.088192
1566249512549208270,-0.430416,3.227552,4.196048
1566249512570115666,-0.430416,3.227552,4.196048
1566249512589561230,-0.434416,3.16864,4.301936
1566249512609699150,-0.434416,3.16864,4.301936
1566249512630708023,-0.438176,3.108144,4.405792
1566249512649937761,-0.438176,3.108144,4.405792
1566249512669138451,-0.441728,3.04608,4.507568
1566249512689182839,-0.441728,3.04608,4.507568
1566249512709316468,-0.44504,2.982464,4.607184
1566249512732621396,-0.44504,2.982464,4.607184
1566249512749689063,-0.448128,2.917344,4.704576
1566249512769692649,-0.448128,2.917344,4.704576
1566249512788773224,-0.450976,2.85072,4.799712
1566249512808990708,-0.450976,2.85072,4.799712
1566249512829030015,-0.453584,2.782624,4.89248
1566249512849147277,-0.453584,2.782624,4.89248
1566249512869228620,-0.455952,2.713072,4.982864
1566249512891183640,-0.455952,2.713072,4.982864
1566249512908525682,-0.45808,2.642112,5.070784
1566249512928718165,-0.45808,2.642112,5.070784
1566249512948655964,-0.459968,2.569744,5.156176
1566249512969601409,-0.459968,2.569744,5.156176
1566249512988275382,-0.4616,2.496016,5.238992
1566249513008650847,-0.4616,2.496016,5.238992
1566249513028737115,-0.462992,2.420944,5.319184
1566249513049958128,-0.462992,2.420944,5.319184
1566249513068219971,-0.464112,2.344576,5.396672
1566249513088555890,-0.464112,2.344576,5.396672
1566249513108937780,-0.464992,2.266944,5.471424
1566249513128909407,-0.464992,2.266944,5.471424
1566249513149022555,-0.465616,2.188048,5.54336
1566249513168182409,-0.465616,2.188048,5.54336
1566249513188285522,-0.465984,2.107952,5.612448
1566249513208368346,-0.465984,2.107952,5.612448
1566249513228434019,-0.46608,2.026688,5.67864
1566249513248480132,-0.46608,2.026688,5.67864
1566249513268596267,-0.46592,1.944288,5.741872
1566249513288584663,-0.46592,1.944288,5.741872
1566249513307710331,-0.465488,1.860768,5.802112
1566249513327744757,-0.465488,1.860768,5.802112
1566249513349014389,-0.464816,1.776208,5.85928
1566249513368236847,-0.464816,1.776208,5.85928
1566249513388309164,-0.463856,1.690608,5.91336
1566249513408226025,-0.463856,1.690608,5.91336
1566249513428242416,-0.46264,1.604016,5.964304
1566249513447454806,-0.46264,1.604016,5.964304
1566249513467496193,-0.461152,1.516496,6.012048
1566249513487658328,-0.461152,1.516496,6.012048
1566249513507627121,-0.459392,1.428064,6.056576
1566249513527747456,-0.459392,1.428064,6.056576
1566249513547827497,-0.457376,1.338768,6.09784
1566249513568020550,-0.457376,1.338768,6.09784
1566249513588046804,-0.455088,1.248656,6.135792
1566249513607212023,-0.455088,1.248656,6.135792
1566249513627328479,-0.452528,1.157776,6.1704
1566249513647533272,-0.452528,1.157776,6.1704
1566249513668808890,-0.449696,1.06616,6.201632
1566249513687464195,-0.449696,1.06616,6.201632
1566249513707637500,-0.446608,0.973872,6.22944
1566249513727568995,-0.446608,0.973872,6.22944
1566249513747561415,-0.443248,0.880944,6.253808
1566249513766939876,-0.443248,0.880944,6.253808
1566249513787106145,-0.439616,0.787424,6.274704
1566249513807178610,-0.439616,0.787424,6.274704
1566249513827262023,-0.435712,0.693376,6.292096
1566249513847247386,-0.435712,0.693376,6.292096
1566249513866851682,-0.431552,0.598832,6.305952
1566249513886501555,-0.431552,0.598832,6.305952
1566249513906597752,-0.42712,0.503856,6.31624
1566249513926755862,-0.42712,0.503856,6.31624
1566249513946730662,-0.422432,0.408496,6.32296
1566249513966815155,-0.422432,0.408496,6.32296
1566249513987010875,-0.417472,0.312816,6.32608
1566249514007251545,-0.417472,0.312816,6.32608
1566249514026385317,-0.412256,0.216832,6.325568
1566249514046420770,-0.412256,0.216832,6.325568
1566249514066804786,-0.406784,0.12064,6.321424
1566249514086937531,-0.406784,0.12064,6.321424
1566249514106095741,-0.40104,0.024272,6.313616
1566249514126882285,-0.40104,0.024272,6.313616
1566249514145942592,-0.395056,-0.072224,6.302144
1566249514166714671,-0.395056,-0.072224,6.302144
1566249514185901337,-0.388816,-0.168768,6.286992
1566249514206142269,-0.388816,-0.168768,6.286992
1566249514226496375,-0.38232,-0.265328,6.268144
1566249514246403893,-0.38232,-0.265328,6.268144
1566249514266367575,-0.375584,-0.361824,6.2456
1566249514286544696,-0.375584,-0.361824,6.2456
1566249514305857548,-0.368592,-0.458208,6.219344
1566249514326031278,-0.368592,-0.458208,6.219344
1566249514346170779,-0.36136,-0.554416,6.189392
1566249514366274409,-0.36136,-0.554416,6.189392
1566249514386622468,-0.353888,-0.650416,6.155728
1566249514405564172,-0.353888,-0.650416,6.155728
1566249514425722623,-0.346176,-0.746112,6.118352
1566249514445776923,-0.346176,-0.746112,6.118352
1566249514466085124,-0.33824,-0.841456,6.077264
1566249514486172448,-0.33824,-0.841456,6.077264
1566249514505400731,-0.33008,-0.9364,6.03248
1566249514525453183,-0.33008,-0.9364,6.03248
1566249514545560411,-0.32168,-1.030864,5.984
1566249514565636148,-0.32168,-1.030864,5.984
1566249514586610235,-0.313056,-1.1248,5.93184
1566249514605827914,-0.313056,-1.1248,5.93184
1566249514625468383,-0.304224,-1.218144,5.876
1566249514645694828,-0.304224,-1.218144,5.876
1566249514665738972,-0.295184,-1.310832,5.816512
1566249514685036570,-0.295184,-1.310832,5.816512
1566249514705380027,-0.28592,-1.4028,5.753376
1566249514725493802,-0.28592,-1.4028,5.753376
1566249514745567935,-0.276464,-1.494,5.686608
1566249514764689257,-0.276464,-1.494,5.686608
1566249514785454812,-0.2668,-1.584336,5.61624
1566249514805551144,-0.2668,-1.584336,5.61624
1566249514825712272,-0.25696,-1.673776,5.542304
1566249514845540287,-0.25696,-1.673776,5.542304
1566249514864847814,-0.246912,-1.76224,5.4648
1566249514885093555,-0.246912,-1.76224,5.4648
1566249514906321376,-0.236688,-1.84968,5.38376
1566249514924622256,-0.236688,-1.84968,5.38376
1566249514944908090,-0.226288,-1.936016,5.299232
1566249514964976825,-0.226288,-1.936016,5.299232
1566249514985021596,-0.215712,-2.021184,5.211232
1566249515005135352,-0.215712,-2.021184,5.211232
1566249515025713602,-0.20496,-2.105136,5.119808
1566249515044801559,-0.20496,-2.105136,5.119808
1566249515064904924,-0.194064,-2.187792,5.024976
1566249515085276974,-0.194064,-2.187792,5.024976
1566249515104448721,-0.182992,-2.269104,4.9268
1566249515124539460,-0.182992,-2.269104,4.9268
1566249515144877190,-0.171792,-2.349008,4.825296
1566249515164684425,-0.171792,-2.349008,4.825296
1566249515184948336,-0.160448,-2.427424,4.720544
1566249515204065702,-0.160448,-2.427424,4.720544
1566249515224127451,-0.14896,-2.504304,4.612544
1566249515244456462,-0.14896,-2.504304,4.612544
1566249515264303608,-0.137344,-2.579568,4.501392
1566249515284458927,-0.137344,-2.579568,4.501392
1566249515304589765,-0.125616,-2.653184,4.387104
1566249515324184508,-0.125616,-2.653184,4.387104
1566249515344205498,-0.11376,-2.725072,4.269744
1566249515364212792,-0.11376,-2.725072,4.269744
1566249515384368039,-0.101808,-2.795168,4.149376
1566249515404335466,-0.101808,-2.795168,4.149376
1566249515423429099,-0.08976,-2.863424,4.026048
1566249515443513463,-0.08976,-2.863424,4.026048
1566249515463796047,-0.077616,-2.92976,3.899824
1566249515483814200,-0.077616,-2.92976,3.899824
1566249515503812257,-0.065392,-2.994128,3.770768
1566249515523947316,-0.065392,-2.994128,3.770768
1566249515544240712,-0.053088,-3.05648,3.638944
1566249515563187827,-0.053088,-3.05648,3.638944
1566249515583245626,-0.040704,-3.116736,3.504432
1566249515603299080,-0.040704,-3.116736,3.504432
1566249515623445115,-0.028272,-3.174864,3.367296
1566249515643520557,-0.028272,-3.174864,3.367296
1566249515663637847,-0.015792,-3.230784,3.2276
1566249515683655531,-0.015792,-3.230784,3.2276
1566249515703782034,-0.003264,-3.284448,3.085408
1566249515722814006,-0.003264,-3.284448,3.085408
1566249515742976649,0.009296,-3.335792,2.940832
1566249515763138617,0.009296,-3.335792,2.940832
1566249515783285234,0.021888,-3.384784,2.793936
